{"query":"lucca","hits":[{"name":"LUCCA","address":"6507 Quail Hill Parkway","area":"Los Angeles / Orange County","city":"Irvine","country":"US","image_url":"https://www.opentable.com/img/restimages/82426.jpg","mobile_reserve_url":"http://mobile.opentable.com/opentable/?restId=82426","payment_options":["AMEX","Discover","MasterCard","Visa"],"phone":"9497251773","postal_code":"92603","price":2,"reserve_url":"http://www.opentable.com/single.aspx?rid=82426","state":"CA","_geoloc":{"lat":33.654848,"lng":-117.781299},"dining_style":"Casual Dining","food_type":"Mediterranean","stars_count":3.9,"reviews_count":"495","neighborhood":"Irvine","phone_number":"(949) 725-1773","price_range":"$30 and under","objectID":"82426","_highlightResult":{"name":{"value":"<em>LUCCA</em>","matchLevel":"full","fullyHighlighted":true,"matchedWords":["lucca"]},"area":{"value":"Los Angeles / Orange County","matchLevel":"none","matchedWords":[]},"city":{"value":"Irvine","matchLevel":"none","matchedWords":[]},"food_type":{"value":"Mediterranean","matchLevel":"none","matchedWords":[]}}},{"name":"Lucca Restaurant & Bar","address":"1615 J St","area":"Sacramento / Sacramento Valley","city":"Sacramento","country":"US","image_url":"https://www.opentable.com/img/restimages/117895.jpg","mobile_reserve_url":"http://mobile.opentable.com/opentable/?restId=117895","payment_options":["AMEX","Discover","MasterCard","Visa"],"phone":"9166695300","postal_code":"95814","price":2,"reserve_url":"http://www.opentable.com/single.aspx?rid=117895","state":"CA","_geoloc":{"lat":38.578115,"lng":-121.484651},"dining_style":"Casual Elegant","food_type":"Californian","stars_count":4.5,"reviews_count":"562","neighborhood":"Sacramento","phone_number":"(916) 669-5300","price_range":"$30 and under","objectID":"117895","_highlightResult":{"name":{"value":"<em>Lucca</em> Restaurant & Bar","matchLevel":"full","fullyHighlighted":false,"matchedWords":["lucca"]},"area":{"value":"Sacramento / Sacramento Valley","matchLevel":"none","matchedWords":[]},"city":{"value":"Sacramento","matchLevel":"none","matchedWords":[]},"food_type":{"value":"Californian","matchLevel":"none","matchedWords":[]}}},{"name":"Luca's Ristorante of Somerset","address":"2019 State Highway 27","area":"New York / Tri-State Area","city":"Somerset","country":"US","image_url":"https://www.opentable.com/img/restimages/93430.jpg","mobile_reserve_url":"http://mobile.opentable.com/opentable/?restId=93430","payment_options":["AMEX","Discover","MasterCard","Visa"],"phone":"7322977676","postal_code":"08873","price":2,"reserve_url":"http://www.opentable.com/single.aspx?rid=93430","state":"NJ","_geoloc":{"lat":40.454187,"lng":-74.51599},"dining_style":"Casual Dining","food_type":"Italian","stars_count":4.5,"reviews_count":"244","neighborhood":"New Brunswick","phone_number":"(732) 297-7676","price_range":"$30 and under","objectID":"93430","_highlightResult":{"name":{"value":"<em>Luca</em>'s Ristorante of Somerset","matchLevel":"full","fullyHighlighted":false,"matchedWords":["lucca"]},"area":{"value":"New York / Tri-State Area","matchLevel":"none","matchedWords":[]},"city":{"value":"Somerset","matchLevel":"none","matchedWords":[]},"food_type":{"value":"Italian","matchLevel":"none","matchedWords":[]}}}],"index":"merged","hitsPerPage":3,"nbHits":8,"nbPages":3,"page":0,"processingTimeMS":1,"disjunctiveFacets":[{"name":"payment_options","data":{"AMEX":8,"MasterCard":8,"Visa":8,"Discover":7,"Diners Club":1},"exhaustive":true}],"hierarchicalFacets":[],"facets":[{"name":"food_type","data":{"Italian":5,"Californian":1,"Contemporary American":1,"Mediterranean":1},"exhaustive":true},{"name":"stars_count","data":{"4":1,"4.5":2,"3.9":1,"4.2":1,"4.4":1,"4.6":1,"4.8":1},"exhaustive":true,"stats":{"min":3.9,"max":4.8,"avg":4.3625,"sum":34.9}}],"_state":{"index":"merged","query":"lucca","facets":["food_type","stars_count"],"disjunctiveFacets":["payment_options"],"hierarchicalFacets":[],"facetsRefinements":{},"facetsExcludes":{},"disjunctiveFacetsRefinements":{},"numericRefinements":{},"tagRefinements":[],"hierarchicalFacetsRefinements":{},"page":0}}